name,lat,lon
Mrkosova,50.00721,14.38089
V Sedlci,50.128204,14.394781
Norbertov,50.09115,14.377741
Starolázeňská,50.01609,14.389594
Kajetánka,50.086704,14.37145
Terasy,50.036964,14.400169
Praha-Jinonice,50.055588,14.371966
Stará Libuš,50.008102,14.462875
Nemocnice Bubeneč,50.10775,14.401875
Radošovická,50.06684,14.495903
Vackova,50.0448,14.315292
Pod Ryšánkou,50.03672,14.426909
Přístaviště,50.039806,14.409684
Chotkovy sady,50.095165,14.409044
Krahulčí,50.107426,14.603806
Masarykovo nádraží,50.08798,14.432547
Hasova,50.015366,14.426987
Praha-Krč,50.03418,14.445969
Pražského povstání,50.05615,14.43443
Sportovní centrum Horní Počernice,50.10898,14.610184
Nádraží Dolní Počernice,50.087135,14.57186
U Labutě,50.035786,14.456119
Prašný most,50.09482,14.395074
Náměstí Míru,50.07506,14.438079
Modřanská škola,50.009068,14.403147
Pilovská,50.08194,14.64875
Ústřední dílny DP,50.074444,14.532297
Zelená liška,50.048607,14.4433
Sídliště Na Dědině,50.08964,14.309497
Zderazská,49.980644,14.348228
Malešické náměstí,50.08501,14.511184
Bubenská,50.098103,14.436589
Komořany,49.99132,14.410687
Uhříněveský hřbitov,50.02794,14.615692
Jesenická,50.057205,14.493589
Šporkova,50.0874,14.398101
Šatovka,50.117523,14.374884
Náměstí Olgy Scheinpflugové,50.03022,14.361761
Litovický potok,50.088646,14.326757
Nemocnice Bulovka - onkologie,50.116917,14.46277
Filmové ateliéry Barrandov,50.031044,14.392094
Ronešova,50.107174,14.565883
Můstek,50.08347,14.423973
Lohenická,50.149033,14.586884
U Střediska,50.058662,14.557749
Jiřího z Poděbrad,50.077526,14.44971
Sedlecký přívoz,50.13335,14.393368
Archeologická,50.044117,14.337817
Průchova,50.062492,14.366192
Newtonova,50.035065,14.551926
Stodůlky-Bavorská,50.054367,14.310517
Cholupický vrch,49.994316,14.434692
Nárožní,50.05342,14.330021
Baterie,50.092396,14.369619
Královice,50.03704,14.635599
Za Tratí,50.167107,14.519106
Spořilov,50.049614,14.482175
Písečná,50.12574,14.443515
Zadní Kopanina,50.006626,14.312903
Morseova,50.03511,14.558902
Novoštěrboholská,50.074425,14.561121
Mílová,50.010017,14.466774
Nádraží Ruzyně,50.085545,14.307989
Radouňova,50.0395,14.317528
Kuchyňka,50.11699,14.450306
Podbělohorská,50.075226,14.372855
Observatoř Libuš,50.00665,14.446491
Bělocerkevská,50.071896,14.470332
Budějovická,50.045063,14.448213
Na Mlýnku,50.111935,14.373442
Balkán,50.094803,14.496246
Nové náměstí,50.03168,14.598007
Škola Slivenec,50.02012,14.355209
Hotel Golf,50.068066,14.346725
Nádraží Vysočany,50.11023,14.499046
Praha-Cibulka,50.064575,14.362176
Smaragdová,50.02648,14.36071
Žabovřeská,49.970284,14.385684
Kamenolom Zbraslav,49.959675,14.394268
Dolní Černošice,49.96297,14.332371
Hrnčíře,49.998356,14.517169
U Ladronky,50.07987,14.362095
Moráň,50.074024,14.418731
Divadlo Na Fidlovačce,50.06474,14.436709
Kobrova,50.076134,14.398609
Hostýnská,50.081192,14.495524
Červeňanského,50.03896,14.33521
Obchodní centrum Čakovice,50.14997,14.508225
Nový Slivenec,50.02646,14.373516
Nádraží Vršovice,50.066055,14.448021
Na Jelenách,50.02214,14.500086
Praha-Stodůlky,50.062206,14.346108
Na Planině,50.03955,14.430239
Škola Nebušice,50.11093,14.330694
Sídliště Čimice,50.14411,14.432021
Nádraží Kyje,50.097424,14.542738
Za Skalkou,50.045616,14.419361
Bazovského,50.06716,14.307558
Kardausova,50.066574,14.553082
Na Fabiánce,50.16111,14.483528
Xaverovský háj,50.101166,14.619526
Pod Vinicí,50.055576,14.483793
Vackov,50.0869,14.486251
Pařížská,50.089428,14.419112
Příborská,50.131424,14.511038
Třebenická,50.129326,14.481306
Klamovka,50.070824,14.379892
K Horoměřicům,50.13231,14.368738
Horčičkova,50.03189,14.534076
Na Lhotkách,49.95334,14.368297
Koleje Jižní Město,50.01724,14.499903
Ukrajinská,50.064995,14.452527
Dlouhá třída,50.091103,14.42772
Ke Kazínu,49.956413,14.342335
Správa sociálního zabezpečení,50.05928,14.405902
Polešovická,50.079132,14.653813
Ruzyňský velkoobchod,50.086338,14.313685
Náměstí Republiky,50.088745,14.43012
Schengenská,50.105827,14.272376
Paceřická,50.119507,14.610931
Poliklinika Černý Most,50.107628,14.572517
U Průseku,50.059113,14.516964
Dolnoměcholupská,50.06006,14.557747
Kavčí hory,50.049526,14.42894
Kněžská luka,50.092117,14.493246
Praha-Braník,50.02802,14.406996
Ortenovo náměstí,50.10772,14.447826
Voňkova,50.09857,14.668009
Maškův mlýn,49.99888,14.318501
Hlávkova,50.036404,14.314268
K Netlukám,50.033173,14.609339
Bachova,50.031292,14.508966
Frančíkova,50.01059,14.356875
Rápošovská,50.07734,14.654314
Zborov - Strašnické divadlo,50.07728,14.500641
Hornocholupická,49.997475,14.424934
U Dálnice,50.020493,14.507401
Řezáčovo náměstí,50.100765,14.4372
Na Havránce,50.00626,14.409826
Olšanské hřbitovy,50.07795,14.466933
Malý Berlín,50.102543,14.435037
Vysočanská,50.11072,14.502219
Milevská,50.048615,14.430271
Vinoř,50.151756,14.591041
Drobná,50.072865,14.556255
Průhonský háj,50.109955,14.341291
Holyně,50.027084,14.358055
U Libušského potoka,50.005882,14.423851
Komárovská,50.11531,14.62145
Nuselská radnice,50.062866,14.441591
Dědinova,50.03391,14.483525
Štěpnice,50.127953,14.367742
Hůrka,50.049637,14.341648
Továrny Hostivař,50.05634,14.54283
K Austisu,50.02118,14.341137
Koleje Větrník,50.088764,14.351196
Poštovka,50.068504,14.353862
Maniny,50.103294,14.453264
Čimice,50.14081,14.430658
Botanická zahrada Malešice,50.08867,14.513969
Depo Hostivař,50.07664,14.516783
IKEM,50.0217,14.462351
Lukášova,50.088074,14.457593
Nepasické náměstí,50.103767,14.658772
Nad Trojou,50.120354,14.439337
Livornská,50.04114,14.551817
U Spojů,50.145668,14.475275
Hříbková,50.020508,14.580193
Lipovická,49.996735,14.467608
Lhotecký les,50.01565,14.43726
Hlohová,50.056393,14.502134
Korek,50.10578,14.360159
Pekárenská,50.04945,14.46395
Lotyšská,50.104263,14.39496
Nová Šárka,50.092957,14.314729
Polygrafická,50.080196,14.519486
Františka Veselého,50.12181,14.621569
K Cikánce,49.997627,14.341734
Vidoule,50.055237,14.36475
K Juliáně,50.117786,14.301151
Velká Chuchle,50.01215,14.380734
Dobronická,50.011017,14.471958
Pod Krocínkou,50.114006,14.511842
Bílá Hora,50.07568,14.323181
Václavské náměstí,50.081818,14.425506
Letňanská,50.122997,14.507336
Nové Komořany,49.992447,14.41968
Čakovický zámek,50.151684,14.521517
Nové Strašnice,50.07792,14.510193
Karlštejnská,50.052643,14.359049
Apolinářská,50.07151,14.426756
Rájecká,50.02524,14.601827
Povltavská,50.116077,14.433817
U Kundratky,50.11782,14.487756
Tempo,50.020035,14.451962
Na Formance,50.016663,14.530283
Vojenská nemocnice,50.091713,14.360064
Vlastibořská,50.1203,14.598816
Strossmayerovo náměstí,50.09891,14.433265
Škola Dolní Počernice,50.088577,14.581316
Staroměstské náměstí,50.087936,14.420891
Sídliště Zbraslav,49.96811,14.384634
Vinohradská tržnice,50.077057,14.442047
Svatoňovická,50.083946,14.574297
Přístav Radotín,49.994415,14.39349
Za Mototechnou,50.05896,14.328106
Na Sklonku,50.06687,14.364227
Praha-Smíchov,50.06131,14.40813
Strnady,49.94565,14.394558
Sídliště Spořilov,50.04779,14.490209
Nový Hloubětín,50.109737,14.529731
Fashion Arena Štěrboholy,50.07469,14.540369
Netřebická,50.129303,14.572818
Na Lukách,50.097538,14.51162
Radlická,50.058594,14.388903
Praha-Veleslavín,50.094994,14.346188
Miškovice,50.155987,14.541626
Vinice Dolní Počernice,50.085842,14.601168
Právnická fakulta,50.091476,14.417732
Praha-Hlubočepy,50.0407,14.393867
Malostranská,50.091072,14.41006
Lahovický most,49.995434,14.398083
Nemocnice Na Františku,50.093002,14.422155
Nymburská,50.126747,14.558483
Jordánská,50.11104,14.562793
U Školy,50.043842,14.421676
U Matěje,50.112236,14.380026
Stodůlky,50.046642,14.307148
Stará Holyně,50.029705,14.356933
Klárův ústav,50.028,14.456942
Slatiňanská,50.10814,14.591312
Laurová,50.061222,14.398432
Tusarova,50.10073,14.450172
Dolní Počernice,50.08524,14.576954
U Zvoničky,50.010407,14.46028
Poliklinika Lípa,50.051235,14.346623
U Blaženky,50.06793,14.384913
Nad Běchovicemi,50.09237,14.623601
Horky,50.06156,14.446262
Výhledy,50.13719,14.368688
Kbelský pivovar,50.130486,14.547281
Nad Jetelkou,50.115276,14.496156
Kamýcká,50.130364,14.382275
Skloněná,50.100334,14.487579
Do Lipan,50.008015,14.626381
Zmrzlík,50.011776,14.312866
Valtická,50.066128,14.266241
Sídliště Zličín,50.06025,14.293251
Vozovna Kobylisy,50.13286,14.453828
Sídliště Kobylisy,50.127045,14.452108
Depo Kačerov,50.045654,14.470515
Terminál 3,50.099056,14.28872
Novochuchelská,50.009087,14.384808
U Rumpálu,50.133232,14.548558
Starý Spořilov,50.04254,14.473511
Chmelnice,50.09252,14.4864
Kobylisy,50.12433,14.454498
Urbanova,50.06247,14.383908
Parkoviště Trojský most,50.115646,14.436711
Prosek,50.119286,14.498221
Na Pazderce,50.125122,14.417893
Žvahov,50.043987,14.401451
Vítězné náměstí,50.09975,14.395556
Želivecká,50.05989,14.493988
Sídliště Malešice,50.082947,14.508013
K Chatám,49.94793,14.375294
K Lipanům,50.015915,14.606476
Amforová,50.04178,14.327298
Píškova,50.04116,14.334352
Kbelský hřbitov,50.144074,14.54666
Ivančická,50.14219,14.511956
Picassova,50.034786,14.594255
Královka,50.084877,14.380366
Kodymova,50.051483,14.337343
Na Vartě,50.045494,14.557497
Knovízská,50.04137,14.500134
Nádraží Horní Počernice,50.11536,14.612968
Pod Karlovem,50.069168,14.432743
Kukulova,50.078495,14.344544
Luka,50.045437,14.321302
Řepínská,50.133514,14.430046
Vlašimská,50.074394,14.465042
Ženské domovy,50.06857,14.400691
Lazarská,50.079422,14.420067
Sibeliova,50.092674,14.384192
U Mlejna,50.02706,14.602255
Pod Říhákem,49.989033,14.362034
Praha-Zličín,50.064144,14.297819
Nový Prosek,50.12111,14.504042
Konvářka,50.05462,14.401834
Zbraslav,49.959045,14.382795
Praha-Horní Počernice,50.116688,14.612695
Poliklinika Petrovice,50.03924,14.560976
Pod Mezí,50.026962,14.355278
U Jahodnice,50.08421,14.550695
Svatoplukova,50.065033,14.428689
Ve Žlíbku,50.11065,14.624501
Pražská čtvrť,50.027943,14.366859
Xaverov,50.101257,14.625361
Větrov,50.07345,14.424397
Odlehlá,50.09842,14.481834
Nevanova,50.066185,14.311344
Starý Hloubětín,50.10443,14.530201
Praha-Horní Měcholupy,50.048023,14.56557
Ořechovka,50.092876,14.379213
Satalice,50.125656,14.571462
Nádraží Uhříněves,50.033733,14.592267
Sídliště Libuš,50.006027,14.454081
Olšanské náměstí,50.082596,14.45828
Letecké muzeum,50.12599,14.535893
Sukovská,50.016098,14.53554
Slovinská,50.070778,14.459145
Hostivařská,50.052765,14.529101
Kotorská,50.054318,14.436834
Sídliště Prosek,50.122498,14.493733
Karlínské náměstí,50.092766,14.445656
Sídliště Novodvorská,50.02511,14.434394
Dolní Měcholupy,50.05687,14.561884
Květnová,50.142708,14.477959
Chodovská,50.05655,14.470234
Viničky,49.979256,14.347851
Sídliště Rohožník,50.07263,14.681809
Zborovská,50.072414,14.407648
Velká Ohrada,50.035473,14.335968
Praha-Kačerov,50.041718,14.46181
Tálínská,50.100906,14.546066
Dřevařská,50.126244,14.56468
Jiráskovo náměstí,50.075962,14.413872
Hloubětín,50.106262,14.537131
Kolová,49.978275,14.349879
Staré Letňany,50.137894,14.516928
K Drsnici,50.14268,14.384613
Sídliště Jinonice,50.051064,14.365638
Ruzyňský hřbitov,50.076027,14.312147
Na Viničkách,49.980045,14.352182
Na Kovárně,50.117928,14.628386
Malvazinky,50.06495,14.3888
Žabovřesky,49.965126,14.383626
Pod Šmukýřkou,50.061184,14.375434
Filosofská,50.02192,14.428201
Křížová,50.063,14.405045
Ve Studeném,50.031593,14.42279
K Hájům,50.05509,14.325163
Zapova,50.073814,14.389523
K Tuchoměřicům,50.11599,14.291384
Nad Košíkem,50.045006,14.519201
Březiněveská,50.12653,14.456921
Nádraží Řeporyje,50.031708,14.309259
Praha-Kyje,50.09756,14.543174
Netluky,50.041092,14.613134
U Kříže,50.112244,14.47554
K Lesoparku,50.049892,14.538555
Polesná,50.07825,14.654918
Vyskočilova,50.048447,14.458592
Dolní Chabry,50.151024,14.437692
Lipence,49.959675,14.352923
Korandova,50.022583,14.421117
Praha-Uhříněves,50.0335,14.591714
Terminál 2,50.105064,14.268054
Sídliště Uhříněves,50.03115,14.611645
Za Farou,50.020054,14.350725
Praha-Zbraslav,49.97053,14.399713
Jalodvorská,50.013664,14.457426
Slánská,50.064484,14.30897
Fryčovická,50.13928,14.504915
Na Vypichu,50.084038,14.34005
Do Koutů,49.99196,14.416426
Benkova,50.03788,14.499432
Ke Kaménce,50.07151,14.30245
Říčanova,50.081387,14.353058
Brusnice,50.093037,14.392054
U Kunratického lesa,50.022926,14.488953
K Říčanům,50.015427,14.632273
Smíchovský hřbitov,50.062145,14.389498
Zálesí,50.028137,14.451393
Dolnočernošická,49.95974,14.328898
Na Parcelách,50.110508,14.335283
Sportareál Satalice,50.123398,14.566725
Nádraží Radotín,49.98459,14.36313
Kloboučnická,50.060455,14.449934
Radiová,50.069675,14.537297
Pavelkova,50.0,14.427351
Plzeňka,50.063583,14.408768
Podlužanská,50.07982,14.649525
U Mezníku,50.051106,14.623074
Čechovo náměstí,50.068035,14.458915
Katovická,50.13211,14.428075
Teplárna Malešice,50.08314,14.525901
Kavkazská,50.069565,14.465633
Divadlo pod Palmovkou,50.10566,14.472753
Valdštejnské náměstí,50.090294,14.405113
Krocínka,50.116043,14.503172
Lehárova,50.00888,14.405748
Sídliště Na Groši,50.05796,14.521374
Divadlo Gong,50.106667,14.488344
Solidarita,50.076874,14.494266
Obchodní centrum Černý Most,50.10823,14.587389
Kavalírka,50.06994,14.370382
Malá Ohrada,50.040306,14.34021
Sídliště Petrovice,50.03468,14.563305
Vozovna Motol,50.06786,14.340922
V Kratinách,50.145668,14.442517
Šperlova,50.034233,14.510867
Palackého náměstí,50.07274,14.414446
Darwinova,50.01081,14.409959
Řeporyjské náměstí,50.032806,14.312009
Na Slovance,50.124107,14.472532
Betonárka,50.036743,14.574778
Prašná,50.035,14.520884
Mladějovská,50.13263,14.560398
Formanská,50.01437,14.544066
Praha-Řeporyje,50.032513,14.308306
Kačerov,50.041855,14.460325
Truhlářská,50.08946,14.428683
Bucharova,50.054016,14.339026
Vojetická,49.976498,14.348144
Nemocnice Bohnice - Divadlo Za plotem,50.134216,14.419077
Mokrá,50.033554,14.50448
U Waltrovky,50.05867,14.373299
Baně,49.95268,14.379145
Poštovská,50.11059,14.508905
Čakovice,50.151436,14.530387
Za Pavilonem,50.060936,14.588411
Obchodní centrum Hostivař,50.053757,14.519269
Klánova,50.02136,14.423567
Bazar,50.09875,14.671466
Starochuchelská,50.01145,14.385867
Dunajecká,50.125557,14.426439
Betáň,50.007286,14.479702
Na Šafránce,50.075542,14.3471
Nad Klamovkou,50.07268,14.37727
Na Staré cestě,50.038555,14.441593
Jankovcova,50.10953,14.444365
Rozýnova,50.08005,14.368742
Nedvězí,50.01675,14.655518
Butovická,50.051346,14.362932
Kokořínská,50.14571,14.485134
Horní Lysolaje,50.129604,14.365529
Na Štamberku,50.146645,14.480214
Špitálka,50.110466,14.378151
Stará Stodůlecká,50.049385,14.357301
Goetheho,50.107437,14.404092
Ke Štěrkovně,49.957176,14.371549
Dreyerova,50.036392,14.383009
Raichlova,50.03913,14.328331
Hadovitá,50.05153,14.45715
Lázeňka,50.058384,14.584743
U Vojenské nemocnice,50.090183,14.363919
Balabenka,50.104023,14.482588
Lihovar,50.05126,14.409636
Vypich,50.079872,14.34559
Přímské náměstí,50.09891,14.678395
Opatov,50.027695,14.508401
Poliklinika Na Dlouhém Lánu,50.096733,14.364944
Rooseveltova,50.10378,14.399746
Spojovací,50.091747,14.498804
Severozápadní,50.046867,14.476215
Klíčov,50.116818,14.514342
Malešický park,50.08631,14.496203
K Dubečku,50.055325,14.5644
Otakarova,50.06558,14.440476
Levského,50.00547,14.437288
Drinopol,50.08394,14.371135
Sídlištní,50.12704,14.378374
Libeňský most,50.10341,14.464732
Zahradní Město,50.060547,14.505883
Nádraží Holešovice,50.109043,14.439334
Univerzitní,50.085228,14.502483
Lochkov,50.002983,14.352734
Sovenická,50.1372,14.547018
Želivského,50.078533,14.473886
Lysolaje,50.126724,14.367412
V Ladech,50.013256,14.513739
Nad Zlíchovem,50.045235,14.404467
Lukavecká,50.116165,14.61756
Teplárna Michle,50.05282,14.474681
Kobyliská střelnice,50.130966,14.460742
Bojasova,50.132534,14.462613
Nad Džbánem,50.094025,14.33696
Na Vrstevnici,50.036545,14.435909
U Palaty,50.077194,14.388019
Strážní,50.092255,14.481275
Cílkova,50.016502,14.443309
Špejchar,50.097458,14.409987
Českomalínská,50.104683,14.403407
Kabešova,50.10239,14.508167
Na Blanici,50.03689,14.582823
Psohlavců,50.02639,14.417341
Kublov,50.054466,14.418098
Václavka,50.06521,14.39332
Libuš,50.008957,14.455713
Bryksova,50.102215,14.578947
Olšanská,50.08345,14.464969
Zahradnictví,50.003162,14.384061
Násirovo náměstí,50.00138,14.421616
Podolská vodárna,50.058975,14.419935
Palouček,50.061493,14.43721
Odra,50.13086,14.424155
K Housličkám,50.129528,14.366734
K Třebonicům,50.036686,14.299112
Rousínovská,50.146225,14.571388
V Uličce,50.041443,14.395779
Nad Laurovou,50.062386,14.395878
K Noskovně,50.11145,14.325092
Lahovičky,50.000176,14.395802
Vinice,50.07687,14.488836
Na Plácku,49.966065,14.394441
Tuháňská,50.158344,14.542675
Hellichova,50.084923,14.404324
Novoborská,50.12628,14.498531
Michnovka,50.039444,14.397184
Vinořský hřbitov,50.14472,14.579728
Břetislavka,50.123127,14.38971
Dvorce,50.047024,14.414782
Zvonařka,50.070915,14.434498
Na Srpečku,50.037914,14.399964
Delta,50.047188,14.457494
Hlubočepy,50.042522,14.40461
Na Vaňhově,50.08014,14.626659
Sídliště Modřany,50.00524,14.433165
Škola Radotín,49.981247,14.360491
V Zátiší,50.02259,14.4327
Pod Hradem,50.03824,14.637688
Vrbova,50.03184,14.426926
Výstaviště Letňany,50.128574,14.512837
Skalka,50.068222,14.507793
Přístav Holešovice,50.104706,14.455816
Chaplinovo náměstí,50.03515,14.377419
Italská,50.078163,14.436041
Osadní,50.103127,14.446531
U Lesíka,50.06471,14.358576
I. P. Pavlova,50.07511,14.430415
Ctěnický zámek,50.148277,14.562317
Rajská zahrada,50.106567,14.559867
Břevnovský klášter,50.08319,14.358776
Hostivařské náměstí,50.050125,14.526367
Sportovní centrum Řepy,50.067047,14.295549
Hradební,50.0907,14.427097
Sibiřské náměstí,50.10461,14.405958
K Barrandovu,50.03528,14.383079
Dopravní hřiště Vypich,50.08172,14.343912
Podhajská pole,50.1297,14.430872
Pod Lipkami,50.07296,14.373112
Ke Březině,49.99409,14.46779
Lipany,49.999405,14.617857
Na Pískách,50.098858,14.369652
Sekeřická,50.113052,14.610129
Myšlínská,50.062164,14.534336
U Radiály,50.07565,14.553709
Sídliště Baba,50.115974,14.386904
Nemocnice Bohnice - Centrální terapie,50.137318,14.423623
Újezd u Průhonic,50.01265,14.546397
K Holyni,50.02043,14.359447
Libeňský zámek,50.10845,14.472282
Nové Dvory,50.017433,14.447873
Pod Vyhlídkou,50.095123,14.376597
Cholupický hřbitov,49.984207,14.461081
Sulická,50.026474,14.44565
Běchovice,50.081207,14.61692
Karenova,50.063385,14.368306
Libocká,50.08676,14.329247
Vinořská,50.139988,14.575898
U Dobešky,50.040196,14.419165
Brodského,50.03861,14.503559
Dvorní,50.147533,14.448384
Závodiště Chuchle,50.00759,14.388886
U Jankovky,49.988205,14.367934
Sídliště Letňany,50.14267,14.506805
Malešická,50.086506,14.481972
Sídliště Hloubětín,50.106472,14.542492
Mototechna,50.05413,14.316309
Kunratická škola,50.013325,14.481635
Metodějova,50.02616,14.521135
Studentský dům,50.105896,14.390012
Slavínského,50.03307,14.385977
Nová kolonie,50.050644,14.327984
Kolovraty,50.016052,14.621393
V Mokřinách,50.020184,14.407799
Krematorium Strašnice,50.07724,14.484958
Pod Šafránkou,50.07335,14.348434
Nové Podolí,50.04348,14.429674
Bruselská,50.073006,14.433263
Třebešovská,50.115555,14.625996
U Žlábku,49.959656,14.36679
V Nových domcích,50.056507,14.533917
Za Chalupami,50.005264,14.356125
Olgy Havlové,50.08744,14.478865
Klánovice,50.098976,14.685684
Nad Markétou,50.083515,14.346944
Zbraslavské náměstí,49.976147,14.393577
Škola Radlice,50.0597,14.393622
Nemocnice Bohnice - Ředitelství,50.13401,14.423561
Nádraží Hlubočepy,50.041275,14.394186
Jana Masaryka,50.07329,14.441085
Pod Rapidem,50.072258,14.484167
Okrouhlická,50.11968,14.460331
Dubečský hřbitov,50.052498,14.580454
Na Proutcích,50.01319,14.502717
Kbelská,50.10527,14.532887
Průběžná,50.07152,14.486185
Myslíkova,50.078068,14.418499
Přírodní,50.01329,14.452831
Vozovna Žižkov,50.091503,14.475054
Zámky,50.13677,14.395045
Hercovka,50.121964,14.452263
Jirčanská,50.00598,14.45903
Hasičská stanice Modřany,50.005962,14.439932
Lhotka,50.02092,14.438337
Na Cikorce,50.01214,14.412666
Krčský hřbitov,50.04628,14.439446
Novozámecká,50.089333,14.569764
Kudrnova,50.072285,14.343967
Hrazanská,49.97781,14.439549
Lužiny,50.044495,14.330442
Madlina,50.120316,14.484501
Břevnovská,50.08551,14.364904
Nové Butovice,50.050976,14.352276
Písková,50.003082,14.417576
Volha,50.021496,14.493436
Murmanská,50.073425,14.4795
Třeboradický hřbitov,50.15927,14.523401
Čimický háj,50.127327,14.435609
Ke Stírce,50.12283,14.456011
Čechův most,50.094055,14.417288
Arena Libeň jih,50.10289,14.494593
Mikulova,50.031944,14.51469
Starý Prosek,50.118015,14.49098
Ryšánka,50.04059,14.438438
Logistická zóna Horní Počernice,50.11541,14.591761
Volyňská,50.07361,14.472181
Botanická zahrada,50.070778,14.419264
Park Rajská zahrada,50.08262,14.444033
Škola Poštovka,50.069,14.355196
Nemocnice Bohnice - Hlavní vrátnice,50.135868,14.428747
Rokycanova,50.086166,14.455483
Sudějovická,50.07525,14.665745
Střelničná,50.12577,14.458929
Jindřišská,50.0852,14.430471
Ke Hrázi,50.086815,14.576322
Čertův vršek,50.117233,14.474052
Doliny,50.05746,14.424447
Zelený pruh,50.039272,14.427514
Na Homoli,50.076283,14.530405
Milíčov,50.026974,14.530675
Ústavy Akademie věd,50.017975,14.466885
Doležalova,50.10185,14.570204
Klikovka,50.057,14.430601
Hněvkovského,50.032337,14.518292
Kolonie,50.09339,14.525186
Lahovice,49.988148,14.398203
Měchenická,50.050118,14.488535
Zadní Jiviny,50.07704,14.298637
Větrník,50.089527,14.350169
Mrázovka,50.068413,14.392519
Krystalová,50.155357,14.52243
Poliklinika Malešice,50.080376,14.501652
Hostivařský pivovar,50.046715,14.550562
Ke Kateřinkám,50.02494,14.515071
Nad Dvorem,50.009728,14.633084
Vinohradské hřbitovy,50.07773,14.480093
Sídliště Horní Počernice,50.11129,14.614161
Sídliště Skalka,50.06266,14.511165
Do Rybníčků,50.14965,14.4452
Živcová,49.9908,14.368361
Starodejvická,50.09691,14.371309
Tylova čtvrť,50.008125,14.415525
Baba I,49.998253,14.415096
Nádraží Libeň,50.101708,14.502612
Choceradská,50.043144,14.490264
Nad Konvářkou,50.053806,14.399128
U Tří svatých,50.01155,14.477419
V Zápolí,50.046684,14.468173
Štěchovická,50.072094,14.500773
V Remízku,50.026146,14.36858
Kazanka,50.117294,14.42804
Hasičská,50.07828,14.603679
Nádraží Satalice,50.123566,14.571158
Praha-Radotín,49.985874,14.364065
Nad Rybníky,50.03705,14.447517
Praha-Běchovice,50.082195,14.598027
Nákladové nádraží Žižkov,50.084732,14.469899
Na Pastvinách,50.10086,14.344557
Zemanka,50.039177,14.423183
Studenecká,50.087124,14.575806
Chodov,50.031216,14.49133
Pacoldova vápenka,50.014206,14.373082
Ciolkovského,50.087936,14.306892
Dehtínská,49.97665,14.344787
Na Míčánkách,50.071125,14.46415
Kateřinky,50.020584,14.520184
Hájová,50.017433,14.652709
Donovalská,50.03694,14.508718
Ke Xaverovu,50.099667,14.6238
Dejvická,50.100925,14.39318
Ordovická,50.05999,14.332217
Na Křečku,50.04418,14.567109
Zálužická,49.99063,14.442199
Zentiva,50.061592,14.546316
Štvanice,50.09527,14.436951
Děkanka,50.053345,14.430969
Sicherova,50.115147,14.56111
Nemocnice Na Homolce,50.075676,14.354425
Platónova,49.998795,14.41676
Perspektivní,50.072002,14.557529
Dolní Šárka,50.115723,14.373972
Líbeznická,50.128944,14.455515
Cholupické náměstí,49.988464,14.448948
Obora Hvězda,50.078316,14.34173
Terminál 1,50.107456,14.268614
Na Radosti,50.060516,14.298967
Dubeček,50.055992,14.579943
Lehovec,50.106968,14.547567
U Lomů,49.996952,14.338987
Vrážská,49.989964,14.370008
Stachova,50.0353,14.531261
Šeberov,50.018158,14.510693
U Elektry,50.10347,14.518999
Pávovské náměstí,50.09321,14.540859
Breitcetlova,50.10614,14.574526
Na Bojišti,50.072857,14.427423
Poliklinika Modřany,50.004738,14.418321
Starý Zličín,50.06172,14.280451
Na Lysinách,50.022312,14.412663
Otakara Vrby,50.076603,14.603355
Bílá labuť,50.09026,14.435867
Vinohradská vodárna,50.075398,14.449725
Krymská,50.071934,14.447405
Sezemická,50.124542,14.619257
Hanspaulka,50.104687,14.373024
Zdická,49.977566,14.350594
Bazén Hloubětín,50.104477,14.535576
Vožická,50.00937,14.493198
Boloňská,50.04773,14.556165
Obchodní centrum Štěrboholy,50.07217,14.542742
U Václava,50.11439,14.312211
Hutmanka,50.056854,14.369463
Třebonice,50.04515,14.280443
Jižní Město,50.034378,14.537989
Tupolevova,50.134506,14.505892
Nádraží Podbaba,50.111816,14.394122
Zatáčka,50.025257,14.42515
Motol,50.068302,14.335325
Smržovská,50.09491,14.668839
Novodvorská,50.023308,14.440515
Marjánka,50.084538,14.375696
Na Knížecí,50.068565,14.405256
Hlavní nádraží,50.084007,14.434799
Lomy,49.998276,14.329468
Škola Dubeč,50.06292,14.590977
Nový Střížkov,50.11852,14.483915
Blažimská,50.042584,14.49285
Barvy a laky,50.065506,14.537081
Letňany,50.125614,14.51615
Římská,50.076767,14.435407
Nádraží Cibulka,50.065533,14.363369
Koloděje,50.060158,14.640762
Hejtmanská,50.105343,14.557119
Mezi Hřbitovy,50.081657,14.471742
U Libušské sokolovny,50.0048,14.464351
Kovářova - KD Mlejn,50.048317,14.317825
Vodičkova,50.07985,14.423084
Ohradní,50.05237,14.453601
Praha-Dolní Počernice,50.08828,14.569302
Pod Dálnicí,50.045,14.461594
Chodovická,50.112618,14.617674
Novoměstská radnice,50.077457,14.419522
Nad Rybníkem,50.087315,14.58613
U Hangáru,50.1083,14.277419
Pavlišovská,50.111343,14.622484
Nádraží Velká Chuchle,50.011425,14.389142
Pod Vsí,50.0113,14.514359
Franty Kocourka,50.06065,14.403367
U Památníku,50.08679,14.445906
Praha-Modřany zast.,50.00394,14.403092
Nádraží Jinonice,50.056553,14.370886
Petřiny,50.087505,14.344923
Náměstí Jiřího Berana,50.150494,14.5266
Stadion Strahov,50.078384,14.388305
Záveská,50.053642,14.522532
Služská,50.124336,14.449883
Haštalské náměstí,50.091,14.42404
Hrnčířský hřbitov,50.002327,14.516439
Macharovo náměstí,50.094177,14.38175
Náměstí Bratří Synků,50.064545,14.44103
Hutě,50.108627,14.557475
Křižíkova,50.09329,14.451389
Kamenická,50.09964,14.428637
Sídliště Pankrác,50.04898,14.435001
Záběhlice,50.055977,14.479563
Praha-Klánovice,50.087166,14.663997
Letenské náměstí,50.099976,14.423605
Záhorského,50.030365,14.370882
Bulovka,50.11641,14.46795
Kutnohorská,50.064037,14.551934
Na Hvězdárně,50.004997,14.375214
Oderská,50.146927,14.530258
Sídliště Zahradní Město,50.056877,14.513167
Národní divadlo,50.080765,14.413995
Palmovka,50.103962,14.474864
Nádraží Žvahov - Prosluněná,50.044903,14.402256
Libošovická,50.11119,14.599493
Blatov,50.078747,14.645492
Televizní věž,50.08024,14.37387
K Zelenči,50.123287,14.62397
Poliklinika Vysočany,50.108738,14.494236
Divoká Šárka,50.092545,14.324166
Bohemians,50.066338,14.45529
Elišky Přemyslovny,49.97494,14.393113
Českobrodská,50.091812,14.532964
U Bílého Mlýnku,50.155308,14.528013
Nemocnice pod Petřínem,50.086884,14.396353
Nový Zličín,50.055668,14.283342
U Počernického rybníka,50.084866,14.59374
Průmyslová,50.07251,14.535639
Pošta Újezd nad Lesy,50.073414,14.65479
Masná,50.08923,14.424117
Filadelfie,50.04862,14.453198
Štefkova,50.079735,14.353033
Pobřežní cesta,50.033974,14.40784
Pod Hájem,50.124683,14.381426
Václavská,50.074524,14.417532
Pod Třebešínem,50.080986,14.485651
Opálová,50.021668,14.363988
Biskupcova,50.08882,14.468716
Cukrovar Modřany,49.99906,14.406416
Jeřická,50.1084,14.609234
Malá Chuchle,50.024986,14.394733
Pohořelec,50.0878,14.388197
Dyrinka,50.10795,14.374708
Otínská,49.982437,14.355907
Ametystová,49.9882,14.362217
Nádraží Běchovice střed,50.08446,14.616652
Poliklinika Háje,50.03385,14.527475
Barrandovská,50.03153,14.395894
Praha-Kolovraty,50.013954,14.62579
Štorkánova,50.06166,14.392675
Sídliště Homolka,50.07363,14.351759
Škola Štěrboholy,50.07218,14.552694
Zličín,50.054676,14.290154
Špitálská,50.111008,14.505019
Urxova,50.0952,14.456741
Střížkov,50.126347,14.489245
Pod Lahovskou,49.991455,14.36562
Písnice,49.99116,14.468513
Baba II,49.99958,14.415072
Krňovická,50.10193,14.65907
Břeclavská,50.09587,14.546143
Sídliště Čakovice,50.15766,14.5203
Přední Kopanina,50.117188,14.298088
Kuliška,50.107693,14.36442
Park Maxe van der Stoela,50.090073,14.385905
Pelc Tyrolka,50.115936,14.443846
Pitkovice,50.0228,14.578334
K Obecním hájovnám,50.043083,14.515776
Dobratická,50.13034,14.508517
V Lískách,50.019783,14.4638
Poliklinika Barrandov,50.03367,14.374061
Praha-Komořany,49.990955,14.404417
Toufarova,50.04242,14.309366
Kolodějská obora,50.062424,14.627858
Valcha,50.131554,14.538194
Pod Zatáčkou,49.956005,14.381588
Černická,50.08015,14.505984
Na Beránku,49.99771,14.429092
Dercsenyiho,50.092224,14.579952
Vozovna Pankrác,50.056946,14.437676
Matějská,50.114975,14.383947
Ferrariho,50.041695,14.304737
Třebešín,50.084106,14.481901
Černínova,50.088966,14.461704
Hlušičkova,50.063896,14.31611
Sídliště Ďáblice,50.132362,14.479131
Náměstí U Lva,50.0353,14.315677
Budovec,50.134277,14.38365
Výtoň,50.067734,14.415654
Ruská,50.07144,14.451325
Šedivého,50.07093,14.314699
Lipnická,50.112557,14.559362
Winklerova,50.065476,14.596973
Kubánské náměstí,50.0707,14.477448
Sparta,50.09916,14.417687
U Prioru,50.086937,14.319098
U Kaštanu,50.083653,14.363112
V Korytech,50.054447,14.488752
Zlíchov,50.04604,14.407648
Kelerka,50.11522,14.489533
Nádraží Čakovice,50.150314,14.520338
Jinonice,50.054455,14.370617
Orionka,50.075653,14.459408
Bohdalecká,50.056786,14.473251
Za Kapličkou,50.12793,14.572622
Nad Závistí,49.98052,14.404201
Grussova,50.034374,14.37071
Škola Kolovraty,50.01117,14.627602
Na Hůrce,50.077896,14.292375
Nýrská,49.977303,14.332507
Lýskova,50.051025,14.309393
Santoška,50.066475,14.399138
K Vystrkovu,49.999497,14.409638
K Trninám,50.06862,14.311083
Zoo Praha - Troja,50.11663,14.411608
Klíčovská,50.117676,14.508134
Slavia - Nádraží Eden,50.06881,14.470062
Staré náměstí,50.081852,14.310551
Na Boleslavce,50.169983,14.483877
Kateřinská,50.074337,14.426158
Závist,49.97618,14.401898
Strojírenská,50.06589,14.288374
Spiritka,50.077168,14.36771
Ovčí hájek,50.04634,14.347667
K Fialce,50.055718,14.329456
Viktoria Žižkov,50.084923,14.444183
Jenerálka,50.10763,14.353661
Přívorská,50.136078,14.436379
U Prdlavky,50.081123,14.445635
Sobín,50.068028,14.263597
Žákovská,50.125927,14.372225
Vychovatelna,50.1184,14.464318
Lešanská,50.04579,14.48353
Dolnopočernický hřbitov,50.091164,14.577236
Průmstav,50.04705,14.575349
Jitřní,50.024265,14.41312
Kostrounek,49.969357,14.381944
Dvořákova,50.1453,14.437286
Praha-Dejvice,50.096977,14.399686
Jílovská,50.026634,14.430116
Dolnokrčská,50.0358,14.442333
Halenkovská,50.06279,14.286526
Karlovo náměstí,50.07529,14.418516
U Staré pošty,50.036034,14.411773
Švandovo divadlo,50.078434,14.404349
Zelená,50.107235,14.394911
V Chotejně,50.058113,14.533428
Veronské náměstí,50.040188,14.558066
Bolevecká,50.04312,14.55613
K Letišti,50.096146,14.292705
Zoo Praha - Sklenářka,50.120304,14.403448
Kbely,50.130783,14.551315
Hrdlořezská,50.09369,14.509479
Pod Chodovem,50.035614,14.493929
Lipanská,50.08396,14.453434
U Trezorky,50.055775,14.3761
Třeboradice,50.162888,14.524853
Sklářská,50.057243,14.536619
U Vody,50.110653,14.448031
Radnice Praha 12,50.002502,14.414122
Ježovická,50.069687,14.649828
Brodecká,50.088806,14.323622
Pod Oborou,50.063072,14.636311
Hostavice,50.09012,14.56333
Za Nadjezdem,50.056877,14.548598
Nemocnice Bulovka - gynekologie,50.1161,14.460119
Zátišská,50.016716,14.410926
Rohožnická,50.073223,14.678188
Rokoska,50.11738,14.457513
Národní třída,50.080586,14.41992
Zamašská,50.14043,14.546904
Nové Letňany,50.14093,14.520952
Antala Staška,50.041607,14.444363
Řepčická,50.04793,14.545004
Ústřední,50.069656,14.543448
Talichova,50.08864,14.366358
Modrá škola,50.031456,14.523545
Václava Špačka,50.098087,14.625605
Bílý Beránek,50.061413,14.309595
Pod Pekařkou,50.043778,14.424589
Osecká,50.14633,14.448543
Ve Výrech,50.035095,14.306014
Zbyslavská,50.074173,14.671418
Mrákovská,50.028183,14.3016
Zamenhofova,50.076748,14.537848
Rektorská,50.087486,14.506817
Jakobiho,50.03325,14.559561
Vysokovská,50.108994,14.602834
Šafránkova,50.05861,14.338596
Českolipská,50.126686,14.501589
Pod Děvínem,50.053345,14.405689
Boletická,50.132874,14.513643
Štěpničná,50.127926,14.477303
Roztyly,50.037663,14.477663
Radimova,50.08754,14.365994
Libeňská,50.13716,14.430042
VÚ Běchovice,50.089203,14.612379
Michelská,50.054718,14.453356
Holečkova,50.074272,14.395394
Praha-Kbely,50.134834,14.555811
U Vodojemu,50.122547,14.527329
Na Hřebenech,50.051643,14.428255
Sychrov,50.120293,14.657324
Argentinská,50.103046,14.443398
Zelené domky,50.016,14.469439
Donatellova,50.072525,14.508122
Nové Vokovice,50.1006,14.340771
Za Slánskou silnicí,50.071034,14.306454
Nad Dívčími hrady,50.054627,14.397961
Kovárna,50.11738,14.416596
Hybšmanka,50.077934,14.381201
Výzkumný ústav vodohospodářský,50.116028,14.392627
Městský archiv Chodovec,50.041077,14.495254
Výhledské náměstí,50.135037,14.373276
Ronalda Reagana,50.101124,14.404657
Bořislavka,50.098568,14.364124
Holešovická tržnice,50.09829,14.444672
Mládí,50.050095,14.322416
Hamplova,50.159596,14.525809
Hulická,50.077675,14.66011
Žárská,50.105743,14.553379
Praha-Holyně,50.032845,14.348548
V Rybníčkách,50.070595,14.507249
Slatinová,50.037743,14.323399
Podkovářská,50.10296,14.513914
Háje,50.030518,14.526902
Nádraží Zbraslav,49.97239,14.399628
Prunéřovská,50.143868,14.450867
Černý Most,50.10898,14.577441
Pod Nouzovem,50.139156,14.55109
Ke Schodům,50.014183,14.415817
Čechova škola,50.117184,14.423426
Avia Letňany,50.14173,14.515738
Albertov,50.067917,14.420799
U Rozcestí,50.016632,14.634934
Na Palouku,50.08043,14.488593
Cukrovar Čakovice,50.15161,14.519001
Březiněves,50.164665,14.483751
Stará obec,50.088677,14.577839
Blatiny,50.065746,14.30265
Vozovna Vokovice,50.093044,14.330969
Domov seniorů Ďáblice,50.135544,14.474096
Zásadská,50.12877,14.49611
Pod Školou,50.068604,14.367477
Praha-Ruzyně,50.084225,14.312161
Radhošťská,50.077633,14.457481
U Háje,50.042213,14.420488
Višňová,50.031227,14.447767
Mokřanská,50.063442,14.526726
Klášterecká,50.14601,14.455856
Čínská,50.10898,14.394304
Belárie,50.013287,14.401838
K Teplárně,50.1688,14.521185
U Studánky,49.998528,14.482804
Stochovská,50.082974,14.311075
Vlnitá,50.035088,14.421129
Obchodní náměstí,50.004772,14.40466
Khodlova,50.110287,14.604071
Na Strži,50.043495,14.438684
Ke Koulce,50.06165,14.404573
Nádraží Hostivař,50.053356,14.536778
Radonická,50.154816,14.538052
Točná,49.972717,14.431784
Náměstí Před Bateriemi,50.09101,14.374306
Suchdolské náměstí,50.135864,14.380329
Hostivařský hřbitov,50.04608,14.524146
Nemocnice Krč,50.030598,14.455178
Obchodní centrum Sárská,50.053738,14.297197
Podnikatelská,50.087376,14.617567
Ohrada,50.09069,14.468334
U Továren,50.056397,14.53998
Ke Klíčovu,50.112755,14.50577
Arbesovo náměstí,50.076275,14.404833
Sídliště Červený Vrch,50.098023,14.359238
Čertousy,50.122543,14.635258
Červený Vrch,50.096832,14.352642
Sídliště Barrandov,50.031364,14.36829
Jahodnice,50.08753,14.557924
Královická,50.065277,14.515526
Přeštická,50.044693,14.512395
Sedlec,50.13468,14.391905
Nové Petrovice,50.040047,14.554596
Smiřická,50.089764,14.666418
U Lípy,50.05225,14.494447
Stavební zóna Horní Počernice,50.116432,14.599371
Pražský hrad,50.093323,14.398235
Nad Habrovkou,50.109085,14.345734
Vinořský zámek,50.141953,14.57807
Praha-Sedlec,50.132046,14.394304
Kablo,50.062164,14.537574
Generála Janouška,50.102634,14.563926
Trojská,50.116783,14.43254
Kbelský lesopark,50.13527,14.535951
Měděnecká,50.149696,14.448679
Jarníkova,50.02665,14.494118
Národní technická knihovna,50.103214,14.390612
Poliklinika Petřiny,50.090027,14.35816
Malovanka,50.085506,14.382293
Pučálka,50.112392,14.358105
Nademlejnská,50.103844,14.525131
Kolbenova,50.11049,14.516205
Mirovická,50.130882,14.452434
Bílenecké náměstí,50.149567,14.442591
Kutvirtova,50.05729,14.392862
Na Padesátníku,50.102158,14.289379
Praha-Hostivař,50.05496,14.53823
Hájek,50.050102,14.628107
Hlavní,50.04673,14.486985
Lomnická,50.087593,14.563049
Bludovická,50.135994,14.511313
Most Závodu míru,49.97277,14.39503
Šeberák,50.011726,14.491318
Peluněk,49.969,14.375783
Spalovna Malešice,50.080185,14.538061
Sídliště Radotín,49.98021,14.353541
Černý kůň,50.02266,14.404207
Sídliště Jahodnice,50.088806,14.550612
Nad Parkánem,50.012554,14.631437
K Letňanům,50.143875,14.48425
Korunovační,50.10039,14.419716
Sídliště Lehovec,50.10326,14.548643
Dobeška,50.04183,14.416
Lahovská,49.998276,14.36703
Na Smetance,50.08,14.437883
Sídliště Řepy,50.06526,14.298309
Krakov,50.12777,14.417053
Poliklinika Prosek,50.12807,14.491937
Dívčí hrady,50.055874,14.398509
Karlovy lázně,50.084667,14.413607
U Včely,49.96897,14.388445
Pod Jezerkou,50.058098,14.450094
U Drahaně,50.135403,14.416
Ke Smrčině,50.017777,14.52519
Kyjský hřbitov,50.09285,14.546912
Dubeč,50.06182,14.596533
Navigátorů,50.093433,14.304141
Bukovinská,50.143986,14.577089
Pernerova,50.089356,14.443106
Staré Strašnice,50.068436,14.4925
Chodovská tvrz,50.033226,14.500105
Újezd nad Lesy,50.075966,14.658372
Nebušice,50.1121,14.321382
Dětská nemocnice Karlov,50.07078,14.428555
Újezd,50.081154,14.404759
Perunova,50.075333,14.454336
Spolská,50.090614,14.541557
Klukovice,50.03591,14.366676
Zdiměřická,50.022244,14.517592
Nušlova,50.054794,14.346201
Ke Kříži,50.029713,14.594986
Na Vrchách,50.038593,14.587983
Třinecká,50.13424,14.509819
Invalidovna,50.097393,14.464328
Koupaliště Čakovice,50.147636,14.524943
Kazínská,50.011665,14.386353
Nádraží Horní Měcholupy,50.04866,14.564873
Nádraží Běchovice,50.081146,14.598888
Hládkov,50.0887,14.387569
Divadlo Horní Počernice,50.11685,14.621793
Hřebenka,50.075085,14.390112
Vyšehrad,50.060806,14.431242
Družná,50.01217,14.416985
Ládví,50.12643,14.469768
Petýrkova,50.03055,14.487643
Dubečská,50.065357,14.502352
Rtyňská,50.081383,14.571531
Šumavská,50.075348,14.443871
U Průhonu,50.104923,14.450027
Vozovna Strašnice,50.075504,14.489729
Kundratka,50.112576,14.479704
Nádraží Klánovice,50.086655,14.664831
Braunova,50.061813,14.40187
Huntířovská,50.129257,14.543926
Pramenná,49.995018,14.487457
Krematorium Motol,50.065937,14.325767
Petrské náměstí,50.091293,14.43224
Nemocnice Bohnice - Interna,50.136093,14.421196
Tehovičky,50.01296,14.623409
Krejcárek,50.095367,14.475628
Koleje Strahov,50.080345,14.390033
Blatov sever,50.08279,14.645157
Nádraží Žvahov - V Násypu,50.04467,14.402629
Křeslice,50.02344,14.565085
Okořská,50.135906,14.431482
Botanická zahrada Troja,50.11912,14.410485
Sídliště Krč,50.02298,14.451398
Praha-Holešovice zast.,50.106106,14.437323
Náměstí Winstona Churchilla,50.084103,14.440859
Počeradská,50.139237,14.451767
Dědina,50.08981,14.301443
Nad Havlem,50.034092,14.448812
K Pitkovičkám,50.024693,14.590793
Na Padesátém,50.064518,14.505184
Vinopalnická,50.11995,14.470384
Kodaňská,50.07075,14.460817
Mariánské náměstí,50.087296,14.417489
Nádraží Krč,50.035088,14.443739
Obchodní centrum Lipence,49.963642,14.363703
Lnářská,50.028206,14.597526
Všestarská,50.100388,14.662666
Kyje,50.097794,14.549159
Za Avií,50.150818,14.514292
Přívozní,50.110226,14.451601
Štěpařská,50.032272,14.373392
Novovysočanská,50.100346,14.491522
Topolová,50.054077,14.507509
V Podbabě,50.12176,14.394158
Škola Velká Chuchle,50.012016,14.382333
Škola Šeberov,50.00647,14.516811
Za Horou,50.092133,14.535086
Janovská,50.040985,14.566949
Středočeská,50.074394,14.407425
Dělnická,50.103146,14.449928
Flora,50.07817,14.461779
Florenc,50.090653,14.438921
Sušická,50.10182,14.372858
Weberova,50.0735,14.355875
Trutnovská,50.14624,14.505726
Nové Pitkovice,50.017204,14.584933
U Nemocnice,50.07352,14.420931
Prebslova,50.167503,14.522608
Strašnická,50.072693,14.491074
Radnice Praha 6,50.10048,14.401611
Květinková,50.09028,14.489098
Wagnerova,50.03607,14.527319
Prvomájová,49.9855,14.357134
Nádraží Braník,50.028835,14.405773
Jiráskova čtvrť,50.094063,14.546152
Cholupice,49.98684,14.445484
Malostranské náměstí,50.08799,14.404415
Bohnické údolí,50.13567,14.412017
Praha-Vysočany,50.11235,14.497358
Kvasinská,50.062553,14.642573
Poliklinika Frýdecká,50.13862,14.508928
Fruta,50.043484,14.581518
Nábřeží Kapitána Jaroše,50.09632,14.431299
Thákurova,50.100258,14.386855
Malý Břevnov,50.076134,14.332546
Holoubkovská,50.043575,14.560505
Pod Královkou,50.08575,14.37884
Högerova,50.034374,14.380959
Vosmíkových,50.114357,14.473273
U Belárie,50.016853,14.403557
Pod Kesnerkou,50.05929,14.403062
Teplická,50.125362,14.486243
V Bokách,50.037983,14.390266
Jezerka,50.057343,14.44305
OC Stromovka,50.101948,14.429262
U Tabulky,50.1176,14.601742
Návětrná,50.02348,14.358296
Ve Vilkách,50.015465,14.539928
Krčská,50.04358,14.442513
Smíchovské nádraží,50.06065,14.409217
Rychnovská,50.135124,14.514034
Branické náměstí,50.034653,14.41438
Labe,50.013733,14.421159
Jemnická,50.04941,14.45908
Diskařská,50.07919,14.381634
Důstojnické domy,50.12449,14.532163
Bártlova,50.118935,14.632621
Ďáblický hřbitov,50.13759,14.478716
Skládka Ďáblice,50.154316,14.485637
Litochlebské náměstí,50.031998,14.506337
Slivenec,50.023598,14.351423
Dolnokřeslická,50.024242,14.560681
Praha-Zahradní Město,50.062313,14.504141
Sídliště Bohnice,50.13161,14.41061
Moravanská,50.1481,14.578445
Poliklinika Zahradní Město,50.056526,14.496965
Drazdecká,49.995907,14.518543
Praha-Velká Chuchle,50.01134,14.388897
Nemocnice Motol,50.074974,14.340787
Obchodní centrum Chuchle,50.018208,14.392214
Vajgarská,50.101967,14.55456
Výstaviště,50.10435,14.431912
Na Petynce,50.08819,14.38135
Sovákova,50.12317,14.581633
Pod Lochkovem,50.00283,14.350538
Lánská,50.098644,14.540519
U Staré školy,50.090176,14.421087
Teplárna Třeboradice,50.16338,14.514757
Schodová,50.06824,14.363554
Muzeum,50.07936,14.431599
Bohdalec,50.060303,14.469803
Kovošrot,50.062084,14.542165
Petržílova,49.999043,14.423217
Kesnerka,50.057884,14.402067
Satalická obora,50.126617,14.574981
Malešická továrna,50.077213,14.525538
Roztylské náměstí,50.044487,14.478575
Pánkova,50.018208,14.649284
Brumlovka,50.047943,14.45477
Vršovické náměstí,50.069096,14.45455
Jinonická,50.069386,14.377517
Českomoravská,50.10583,14.492602
Pankrác,50.05162,14.439282
Korytná,50.064793,14.493297
Ohradské náměstí,50.037334,14.335455
Zemědělská univerzita,50.13325,14.377416
Nemocnice Vinohrady,50.076706,14.475516
U Kapličky,49.962048,14.360671
Přeštínská,49.993733,14.376312
Praha-Podbaba,50.11281,14.394747
Blatnická,50.064125,14.270513
Těšnov,50.091698,14.436561
Depo Zličín,50.0533,14.277748
Hradčanská,50.097504,14.404309
Královský letohrádek,50.094246,14.404763
Černý vrch,50.068314,14.387395
Čechtická,50.02092,14.444842
Toulcův dvůr,50.047802,14.519342
Gercenova,50.050224,14.543526
Soukalova,50.00609,14.414599
Sídliště Lhotka,50.01722,14.434446
Poliklinika Mazurská,50.1273,14.413631
Serpentina,50.03608,14.401023
Perlit,50.085526,14.537768
U Uhříněveské obory,50.039223,14.590106
Nuselské schody,50.068268,14.435542
Bečovská,50.043114,14.586886
Selských baterií,50.073967,14.316343
Za Čimickým hájem,50.135445,14.447542
Michelangelova,50.070225,14.509613
Za Novákovou zahradou,50.123825,14.577425
Žežulka,50.118534,14.382
Pod Kyjovem,49.965714,14.369059
U Kestřánků,49.986935,14.356814
Brechtova,50.035362,14.516752
Chodovec,50.039646,14.490528
Štěrboholy,50.07179,14.550422
Praha-Libeň,50.10079,14.501663
Geologická,50.03649,14.387701
Škola Řepy,50.06895,14.295912
Praha-Čakovice,50.149044,14.519135
Jizbická,50.110165,14.622798
Cikánka,49.99745,14.322625
Zahradníčkova,50.069508,14.336514
Obchodní centrum Zličín,50.049988,14.29725
Praha-Satalice,50.12296,14.570904
Šmukýřka,50.064266,14.370617
Dobročovická,50.073334,14.504917
Dělostřelecká,50.096535,14.387833
Šimůnkova,50.132935,14.470473
Kunratice,50.0132,14.487515
Nádraží Klánovice-sever,50.087837,14.66551
Pod Žvahovem,50.043495,14.403092
V Sudech,49.99224,14.345995
Staroměstská,50.088654,14.416384
Práčská,50.053658,14.510127
Basilejské náměstí,50.08719,14.470921
Kotlářka,50.06996,14.362337
K Žižkovu,50.099495,14.496414
Kyselova,50.126167,14.463701
Štěpánská,50.075604,14.4234
Vlastina,50.091263,14.316939
Jilemnická,50.136887,14.550188
Modřanská rokle,50.0064,14.429379
Praha-Holešovice,50.11053,14.439771
Na Svěcence,50.100975,14.611785
Vojická,50.113876,14.603918
Praha-Běchovice střed,50.083626,14.615585
Nádraží Veleslavín,50.09581,14.347233
Ve Smečkách,50.077328,14.426062
Nemocnice Bohnice,50.137665,14.418087
Sídliště Petřiny,50.086506,14.339509
Šafránecká,50.075874,14.344734
Vozovna Hloubětín,50.107674,14.528366
Lidečská,50.06076,14.30216
Safírová,49.989777,14.350359
Tiskařská,50.08295,14.534092
Podhoří,50.122616,14.3997
Svépravice,50.10337,14.609434
Škola Lipence,49.960682,14.356225
Venušina,50.02629,14.608627
Šumperská,50.13588,14.508611
Ruzyňská škola,50.08351,14.3181
Wattova,50.03745,14.561984
Hadovka,50.099487,14.375429
Na Mlýnici,50.114174,14.3207
Vltavská,50.09907,14.438273
Nad Pahorkem,50.042862,14.487783
Bašteckého,50.03994,14.336145
Limuzská,50.077965,14.506385
Farkáň,50.061134,14.381872
Tachovské náměstí,50.087288,14.45233
Naskové,50.063377,14.360533
Plošná,50.068466,14.517532
Kalinův mlýn,50.111084,14.368007
Veletržní palác,50.101734,14.433064
Dukla-Juliska,50.110416,14.386059
Plaňanská,50.081764,14.499905
Do Čertous,50.12268,14.610378
Na Groši,50.052933,14.523912
Prosecká,50.117374,14.496969
Ústav mateřství,50.02451,14.460043
Kusá,50.087025,14.360992
Čechova čtvrť,50.002213,14.410177
Ruzyňská,50.085815,14.325098
Koh-i-noor,50.06737,14.461471
Čakovická,50.119076,14.518726
Tyršova čtvrť,50.01409,14.410701
Vinice Hrdlořezy,50.100166,14.517855
Roztocká,50.12701,14.398731
Na Santince,50.106945,14.388667
Na Hroudě,50.07025,14.488985
Rembrandtova,50.068184,14.512451
Praha-Žvahov,50.045673,14.402428
Druhanická,50.07228,14.652829
Lísek,50.04265,14.456718
Solná,49.996555,14.366285
Ctěnice,50.145577,14.557268
Na Šabatce,49.98919,14.408996
Praha-Vršovice,50.064518,14.44767
Nádraží Zahradní Město,50.062004,14.504097
Nádraží Modřany,50.004177,14.40352
Ďáblice,50.148674,14.486677
Staré Bohnice,50.133575,14.415844
Do Chuchle,50.017586,14.357061
Schorova,50.102234,14.469186
Benice,50.01344,14.60513
Sportovní centrum Kbely,50.135,14.544264
Bakovská,50.134754,14.549382
U Měchurky,50.0647,14.378234
Liběchovská,50.14405,14.472266
Horní cesta,50.033268,14.39645
Příbramská,49.977764,14.346405
Centrum Zahradní Město,50.056377,14.50688
Kapitána Stránského,50.103424,14.575963
Ostrčilovo náměstí,50.065064,14.424791
Kazín,49.951042,14.340826
Záběhlická škola,50.053032,14.50318
Poliklinika Budějovická,50.04326,14.449915
Ocelářská,50.103546,14.488421
Anděl,50.07126,14.403365
Sdružení,50.054466,14.442558
Praha-Rajská zahrada,50.107533,14.560179
Pod Konvářkou,50.05551,14.405059
Zahrádky,50.027268,14.31245
Radnice Řepy,50.07274,14.306898
Sídliště Černý Most,50.102173,14.582815
V Přístavu,50.108486,14.453746
Uhříněves,50.030098,14.604857
Na Košíku,50.047108,14.515264
Poliklinika Čumpelíkova,50.126957,14.460493
Sídliště Písnice,50.000862,14.466504
Reinerova,50.07421,14.310146
Chvaly,50.112583,14.595902
Plynárna Michle,50.056526,14.464953
Praha-Eden,50.065785,14.471769
Ořešská,50.03042,14.304958
Plánická,49.992046,14.365441
U Zvonu,50.071564,14.387082
Bertramka,50.072235,14.392862
Toužimská,50.136276,14.522711
Jiviny,50.077416,14.303927
Pod Táborem,50.09221,14.512008
Rosečská,50.038307,14.454509
Na Pramenech,50.14867,14.49717
Dostihová,50.01274,14.394119
Na Veselí,50.05553,14.440127
Chýnovská,50.01635,14.450534
Habrová,50.087883,14.490859
Nemocnice Bulovka,50.11568,14.463954
U Křížku,50.01598,14.35671
Zhořelecká,50.130993,14.417467
Cementárna Radotín,49.994095,14.342561
Vršovický hřbitov,50.063255,14.466711
